City_ID,City,Lat,Lng,Max Temp,Humidity,Cloudiness,Wind Speed,Country,Date
0,cidreira,-30.1811,-50.2056,20.54,63,97,2.91,BR,1692195098
1,badger,64.8,-147.5333,14.28,83,75,0.0,US,1692195098
2,piti village,13.4626,144.6933,28.49,86,0,2.06,GU,1692195099
3,bereeda,11.8704,51.0579,33.09,49,16,0.66,SO,1692195100
4,ushuaia,-54.8,-68.3,-0.74,80,23,1.19,AR,1692195100
5,grytviken,-54.2811,-36.5092,0.62,99,96,3.1,GS,1692195101
6,howard springs,-12.497,131.047,22.95,83,70,1.38,AU,1692195101
7,yellowknife,62.456,-114.3525,13.01,80,40,2.68,CA,1692195103
8,stanley,54.868,-1.6985,20.16,77,20,1.54,GB,1692195103
9,udachny,66.4167,112.4,20.25,52,100,2.62,RU,1692195104
10,hawaiian paradise park,19.5933,-154.9731,22.8,97,20,2.06,US,1692195104
11,kodiak,57.79,-152.4072,9.73,87,100,2.57,US,1692195105
12,rampur,28.8167,79.0333,30.19,70,100,1.97,IN,1692195105
13,al kharijah,25.4514,30.5464,37.89,14,0,8.18,EG,1692195106
14,blackmans bay,-43.0167,147.3167,6.07,79,100,3.16,AU,1692195107
15,bilibino,68.0546,166.4372,14.88,86,100,1.08,RU,1692195107
16,keflavik,64.0049,-22.5624,13.95,88,75,7.2,IS,1692195108
17,waitangi,-43.9535,-176.5597,8.79,73,100,6.63,NZ,1692195108
18,port-aux-francais,-49.35,70.2167,2.21,60,41,14.0,TF,1692195109
19,arraial do cabo,-22.9661,-42.0278,22.92,78,75,8.23,BR,1692195109
20,cooper's town,26.8667,-77.5167,29.58,73,100,6.12,BS,1692195110
21,marcon-gaggio-colmello,45.5644,12.2989,34.52,37,0,2.06,IT,1692195111
22,klyuchi,52.2667,79.1667,17.72,56,100,2.45,RU,1692195111
23,la sarre,48.8002,-79.1996,17.22,68,100,2.54,CA,1692195112
24,utrik,11.2278,169.8474,27.75,79,23,4.87,MH,1692195112
25,kailua-kona,19.6406,-155.9956,24.98,82,0,3.09,US,1692195113
26,wailua homesteads,22.0669,-159.378,26.44,84,75,5.66,US,1692195113
27,fort st. john,56.2499,-120.8529,10.58,87,1,1.19,CA,1692194839
28,port lincoln,-34.7333,135.8667,13.98,78,100,3.16,AU,1692195115
29,grand baie,-20.0182,57.5802,24.26,68,3,3.49,MU,1692195115
30,dryden,49.7833,-92.7503,17.16,77,100,5.14,CA,1692195116
31,nova prata,-28.7839,-51.61,19.21,60,0,2.21,BR,1692195116
32,saint-philippe,-21.3585,55.7679,23.77,81,56,1.58,RE,1692195117
33,olonkinbyen,70.9221,-8.7187,6.27,93,100,4.66,SJ,1692195117
34,fale old settlement,-9.3852,-171.2468,28.47,71,85,8.76,TK,1692195118
35,mugia,43.1041,-9.2179,29.39,75,23,8.4,ES,1692195119
36,hamilton,39.1834,-84.5333,23.19,79,0,2.57,US,1692194995
37,mahina,-17.5065,-149.489,22.87,78,75,1.54,PF,1692195120
38,papatowai,-46.5619,169.4708,5.41,88,76,4.17,NZ,1692195120
39,laguna,38.421,-121.4238,27.02,75,0,1.54,US,1692195121
40,alofi,-19.0595,-169.9187,24.47,83,16,6.78,NU,1692195121
41,margaret river,-33.95,115.0667,13.61,63,99,7.4,AU,1692195122
42,brokopondo,4.75,-55.1667,28.93,69,8,2.16,SR,1692195123
43,santa ana de yacuma,-13.75,-65.4333,29.86,40,0,2.3,BO,1692195124
44,iqaluit,63.7506,-68.5145,4.85,100,75,4.47,CA,1692195125
45,afaahiti,-17.75,-149.2833,21.93,79,91,7.24,PF,1692195126
46,west island,-12.1568,96.8225,23.99,88,75,12.35,CC,1692195127
47,ribeira grande,38.5167,-28.7,26.22,89,75,6.17,PT,1692195128
48,ta`u,-14.2336,-169.5144,26.97,80,24,6.83,AS,1692195128
49,watton,53.9333,-0.45,23.13,64,100,3.6,GB,1692195129
50,uturoa,-16.7333,-151.4333,25.15,75,38,9.2,PF,1692195134
51,isafjordur,66.0755,-23.124,11.02,87,100,2.57,IS,1692195137
52,chonchi,-42.6128,-73.8092,9.51,97,99,2.51,CL,1692195137
53,sao vicente,-23.9631,-46.3919,28.1,80,100,1.77,BR,1692195138
54,adamstown,-25.066,-130.1015,18.96,65,100,8.59,PN,1692195139
55,nasiriyah,31.0521,46.261,46.81,4,0,4.69,IQ,1692195139
56,longyearbyen,78.2186,15.6401,5.91,81,75,9.77,SJ,1692194880
57,buzuluk,52.7807,52.2635,20.78,79,100,3.23,RU,1692195144
58,nova sintra,14.8667,-24.7167,24.42,82,40,3.95,CV,1692195144
59,port elizabeth,-33.918,25.5701,18.16,77,0,6.17,ZA,1692195145
60,lompoc,34.6391,-120.4579,15.89,97,1,2.06,US,1692194858
61,edinburgh of the seven seas,-37.0676,-12.3116,13.56,94,100,7.53,SH,1692195146
62,fortuna,40.5982,-124.1573,15.51,97,40,0.0,US,1692195147
63,nemuro,43.3236,145.575,18.36,93,100,6.92,JP,1692195147
64,georgetown,5.4112,100.3354,27.96,83,20,2.06,MY,1692195069
65,ola,59.5833,151.2833,13.97,96,100,1.64,RU,1692195148
66,zykovo,55.9519,93.1461,14.44,68,7,2.38,RU,1692195149
67,puerto natales,-51.7236,-72.4875,-1.51,65,2,0.97,CL,1692195151
68,ilulissat,69.2167,-51.1,8.01,76,75,1.54,GL,1692195151
69,novodvinsk,64.4165,40.8122,22.96,49,70,0.97,RU,1692195152
70,selfoss,63.9331,-20.9971,15.02,80,100,5.08,IS,1692195153
71,kertih,4.5141,103.4483,25.99,89,99,2.25,MY,1692195153
72,katsuren-haebaru,26.3369,127.8719,27.43,89,75,3.6,JP,1692195154
73,kruisfontein,-34.0033,24.7314,19.9,49,100,2.22,ZA,1692195155
74,taoudenni,22.6783,-3.9836,42.15,19,33,1.63,ML,1692195155
75,ocean shores,46.9737,-124.1563,17.2,96,100,0.0,US,1692195156
76,fort mcmurray,56.7268,-111.381,12.77,100,100,2.57,CA,1692195157
77,bredasdorp,-34.5322,20.0403,17.69,56,0,5.11,ZA,1692195157
78,thompson,55.7435,-97.8558,13.09,100,100,4.63,CA,1692195158
79,guankou,28.15,113.6333,27.05,75,0,0.48,CN,1692195158
80,ambon,-3.6954,128.1814,25.37,79,100,5.1,ID,1692195159
81,tiksi,71.6872,128.8694,5.11,98,84,2.67,RU,1692195160
82,alice springs,-23.7,133.8833,21.75,33,40,3.6,AU,1692195160
83,tvoroyri,61.5556,-6.8111,11.32,81,100,2.71,FO,1692195161
84,kegen,43.0197,79.2203,11.79,46,3,1.61,KZ,1692195161
85,stornoway,58.2093,-6.3865,18.38,82,40,4.63,GB,1692195162
86,punta cardon,11.6581,-70.215,28.66,70,67,9.33,VE,1692195162
87,mount isa,-20.7333,139.5,12.87,62,5,0.0,AU,1692195163
88,bichena,10.45,38.2,17.55,76,100,3.52,ET,1692195164
89,talnakh,69.4865,88.3972,10.43,65,0,7.36,RU,1692195164
90,sechura,-5.5569,-80.8222,22.75,72,68,4.93,PE,1692195165
91,sitka,57.0531,-135.33,15.94,77,75,4.63,US,1692195165
92,los alamos,35.8881,-106.307,19.76,57,0,0.0,US,1692195166
93,samraong,12.4526,105.5873,25.71,91,99,1.43,KH,1692195166
94,okha,53.5739,142.9478,14.26,97,69,1.98,RU,1692195167
95,suozhen,36.9539,118.1047,26.88,58,0,1.26,CN,1692195168
96,punta arenas,-53.15,-70.9167,1.59,78,11,3.35,CL,1692195009
97,dudinka,69.4058,86.1778,10.64,59,0,7.18,RU,1692195169
98,vernon,50.2581,-119.2691,20.89,50,0,0.88,CA,1692195021
99,road town,18.4167,-64.6167,33.05,66,20,6.69,VG,1692195170
100,isangel,-19.55,169.2667,21.16,85,58,5.5,VU,1692195170
101,flying fish cove,-10.4217,105.6791,22.82,94,100,6.69,CX,1692195171
102,port shepstone,-30.7414,30.455,19.12,71,95,10.07,ZA,1692195172
103,gunjur,13.2019,-16.7339,25.25,90,100,5.0,GM,1692195173
104,ampanihy,-24.7,44.75,19.53,59,95,5.33,MG,1692195174
105,vuktyl,63.8567,57.3094,28.19,42,35,1.17,RU,1692195174
106,ust-nera,64.5667,143.2,13.51,95,100,1.06,RU,1692195175
107,whitehorse,60.7161,-135.0538,12.43,72,75,7.72,CA,1692194987
108,morag,53.9171,19.926,30.42,41,100,3.95,PL,1692195176
109,lebu,-37.6167,-73.65,11.81,96,99,2.43,CL,1692195176
110,owando,-0.4819,15.8999,32.53,41,82,1.51,CG,1692195177
111,namibe,-15.1961,12.1522,19.96,72,88,5.11,AO,1692195178
112,togur,58.3631,82.8265,13.32,98,100,5.15,RU,1692195178
113,opuwo,-18.0607,13.84,30.69,12,39,0.97,NA,1692195179
114,ouahigouya,13.5828,-2.4216,31.29,53,96,3.61,BF,1692195179
115,kununurra,-15.7667,128.7333,21.99,73,7,1.03,AU,1692195180
116,aleksandrovsk-sakhalinskiy,50.8975,142.1561,16.98,95,100,1.58,RU,1692195180
117,albany,42.6001,-73.9662,23.78,88,68,0.89,US,1692195181
118,vitkov,49.7744,17.7494,31.4,42,16,1.26,CZ,1692195182
119,papao,-17.75,-149.55,22.82,81,78,7.84,PF,1692195182
120,port mathurin,-19.6833,63.4167,23.04,76,1,7.74,MU,1692195183
121,orchard mesa,39.043,-108.5523,24.48,47,20,3.6,US,1692195183
122,codrington,-38.2667,141.9667,11.81,50,100,5.78,AU,1692195184
123,peskovka,59.0448,52.3606,24.44,65,91,1.19,RU,1692195185
124,shenkursk,62.1091,42.896,24.25,49,27,1.73,RU,1692195185
125,acarau,-2.8856,-40.12,30.59,50,28,7.14,BR,1692195186
126,luba,3.4568,8.5547,25.77,89,67,5.04,GQ,1692195187
127,sandnessjoen,66.0217,12.6316,16.29,88,75,2.57,NO,1692195187
128,puerto baquerizo moreno,-0.9,-89.6,24.55,83,75,6.17,EC,1692195170
129,kapuskasing,49.4169,-82.4331,17.05,77,100,2.06,CA,1692195189
130,tabou,4.423,-7.3528,27.07,65,95,2.81,CI,1692195190
131,walvis bay,-22.9575,14.5053,15.05,64,11,9.21,NA,1692195190
132,kavaratti,10.5669,72.642,27.87,75,16,6.78,IN,1692195191
133,heroica caborca,30.7167,-112.15,32.39,36,12,1.55,MX,1692195192
134,la ronge,55.1001,-105.2842,15.14,77,75,7.2,CA,1692195193
135,petropavlovsk-kamchatsky,53.0452,158.6483,14.32,76,76,5.28,RU,1692195193
136,haiku-pauwela,20.9219,-156.3051,23.01,83,75,1.54,US,1692195194
137,san patricio,28.017,-97.5169,31.03,65,100,1.41,US,1692195194
138,bulawayo,-20.15,28.5833,23.62,22,0,6.21,ZW,1692195195
139,charters towers,-20.1,146.2667,15.06,59,84,4.47,AU,1692195195
140,iskateley,67.6803,53.1512,20.05,67,6,4.95,RU,1692195196
141,dalandzadgad,43.5708,104.425,19.33,50,7,6.57,MN,1692195197
142,anadyr,64.75,177.4833,13.89,71,0,3.0,RU,1692195197
143,luderitz,-26.6481,15.1594,15.0,71,25,3.17,NA,1692195198
144,abaza,52.655,90.0928,11.68,77,6,1.18,RU,1692195199
145,karimganj,24.8667,92.35,26.72,93,100,0.42,IN,1692195199
146,puerto deseado,-47.7503,-65.8938,1.62,66,9,2.46,AR,1692195200
147,avarua,-21.2078,-159.775,23.03,73,40,3.6,CK,1692195202
148,terbanggi besar,-4.8667,105.2333,24.56,81,57,2.85,ID,1692195204
149,manzanillo,20.3433,-77.1167,28.64,75,88,2.24,CU,1692195205
150,nuku'alofa,-21.1333,-175.2,20.19,94,100,3.09,TO,1692195205
151,grootfontein,-19.5667,18.1167,28.68,10,2,4.02,NA,1692195206
152,lihue,21.9789,-159.3672,26.77,78,75,5.66,US,1692195214
153,san antonio de pale,-1.4014,5.6325,23.51,86,84,4.2,GQ,1692195218
154,necochea,-38.5473,-58.7368,9.47,74,100,10.01,AR,1692195219
155,manfalut,27.3104,30.97,35.14,17,0,7.09,EG,1692195220
156,puerto aysen,-45.4,-72.7,0.21,96,100,2.34,CL,1692195220
157,hondarribia,43.372,-1.7945,25.92,73,75,2.57,ES,1692195221
158,bethel,41.3712,-73.414,21.54,89,100,1.54,US,1692195222
159,murun-kuren,49.6342,100.1625,11.73,62,86,2.17,MN,1692195227
160,aasiaat,68.7098,-52.8699,3.27,80,61,4.9,GL,1692195228
161,obock,12.25,43.0833,36.07,26,49,2.67,DJ,1692195228
162,tadine,-21.55,167.8833,17.85,67,0,3.82,NC,1692195229
163,carutapera,-1.195,-46.02,30.28,60,97,4.96,BR,1692195010
164,tutong,4.8,114.65,27.05,81,100,1.21,BN,1692195230
165,saipan,15.1355,145.701,27.58,100,20,0.45,MP,1692195231
166,taltal,-25.4,-70.4833,16.79,73,22,2.15,CL,1692195231
167,kilindoni,-7.9139,39.6668,25.62,74,6,5.93,TZ,1692195232
168,nizhnesortymskiy,62.4397,71.7603,18.08,52,4,5.45,RU,1692195232
169,bam,29.106,58.357,32.46,5,3,4.84,IR,1692195233
170,baiti,13.745,-14.7482,25.96,86,100,4.45,SN,1692195233
171,jamestown,42.097,-79.2353,21.68,85,100,1.54,US,1692194939
172,queenstown,-31.8976,26.8753,23.85,18,100,5.96,ZA,1692195234
173,tazovsky,67.4667,78.7,10.92,64,0,4.44,RU,1692195235
174,atafu village,-8.5421,-172.5159,28.64,71,45,8.42,TK,1692195236
175,catriel,-37.8791,-67.7956,10.78,55,98,5.35,AR,1692195237
176,kudahuvadhoo,2.6708,72.8944,28.18,62,97,1.19,MV,1692195237
177,susuman,62.7833,148.1667,12.9,83,100,2.03,RU,1692195238
178,qaqortoq,60.7167,-46.0333,8.24,82,22,2.32,GL,1692195238
179,pala,9.3642,14.9046,32.46,52,96,2.09,TD,1692195239
180,magdagachi,53.45,125.8,17.76,87,49,0.77,RU,1692195240
181,soligalich,59.0778,42.2864,23.68,55,92,2.94,RU,1692195240
182,dunedin,-45.8742,170.5036,7.67,65,48,4.02,NZ,1692195241
183,magadan,59.5667,150.8,13.63,98,100,2.98,RU,1692194964
184,thunder bay,48.4001,-89.3168,17.99,88,100,3.09,CA,1692195242
185,beloretsk,53.9631,58.3981,22.46,58,81,1.13,RU,1692195243
186,auki,-8.7676,160.7034,24.5,89,97,2.21,SB,1692195244
187,irosin,12.75,124.0333,23.33,88,30,1.33,PH,1692195245
188,masvingo,-20.0637,30.8277,19.74,51,6,5.64,ZW,1692195245
189,nabire,-3.3667,135.4833,23.9,93,100,2.45,ID,1692195246
190,nelson bay,-32.7167,152.15,13.33,94,0,1.79,AU,1692195246
191,weno,7.4515,151.8468,25.97,94,100,2.57,FM,1692195247
192,kuragino,53.8975,92.6725,13.21,79,84,3.15,RU,1692195248
193,arawa,-6.2132,155.5367,24.65,92,99,1.62,PG,1692195248
194,rio grande city,26.3798,-98.8203,31.04,51,97,2.81,US,1692195249
195,bambanglipuro,-7.95,110.2833,23.15,86,58,3.85,ID,1692195250
196,agaro,7.85,36.65,20.9,91,89,0.66,ET,1692195250
197,tangalle,6.024,80.7911,29.09,75,57,5.81,LK,1692195251
198,percut,3.6253,98.864,28.12,84,93,2.18,ID,1692195251
199,hadibu,12.65,54.0333,27.61,72,94,7.28,YE,1692195252
200,cullinan,-25.6709,28.5236,23.23,24,34,4.33,ZA,1692195253
201,yanbu,24.0891,38.0637,39.02,50,20,6.17,SA,1692195253
202,khandyga,62.6667,135.6,13.63,98,100,0.97,RU,1692195254
203,dinard,48.6314,-2.0614,22.57,69,0,4.63,FR,1692195254
204,kargasok,59.0556,80.8572,13.22,94,100,4.74,RU,1692195255
205,constantia,44.1833,28.65,31.5,66,55,6.59,RO,1692195256
206,smithers,54.7804,-127.1743,9.18,87,20,0.0,CA,1692195257
207,college,64.8569,-147.8028,14.33,81,75,0.0,US,1692195257
208,adi keyh,14.8444,39.3772,21.15,53,88,0.9,ER,1692195258
209,diveyevo,55.0433,43.2418,23.25,66,82,5.1,RU,1692195258
210,oriximina,-1.7656,-55.8661,33.6,41,19,2.47,BR,1692195259
211,boali,4.8005,18.1275,30.13,61,50,1.42,CF,1692195260
212,portland,45.5234,-122.6762,24.12,73,20,1.54,US,1692195223
213,ancud,-41.8697,-73.8203,9.17,91,100,4.48,CL,1692195261
214,hithadhoo,-0.6,73.0833,27.99,69,44,3.66,MV,1692195261
215,international falls,48.6011,-93.411,19.1,77,0,1.79,US,1692195262
216,aykhal,66.0,111.5,16.47,61,100,1.92,RU,1692195262
217,rajaori,33.3833,74.3,25.3,79,11,1.14,IN,1692195263
218,akureyri,65.6835,-18.0878,15.96,63,75,1.54,IS,1692195264
219,tralee,52.2704,-9.7026,20.14,60,40,1.03,IE,1692195264
220,puerto ayora,-0.7393,-90.3518,26.98,90,55,1.79,EC,1692195265
221,ahtari,62.554,24.0619,23.5,58,98,4.64,FI,1692195266
222,mbaiki,3.8678,17.9892,32.29,42,30,1.12,CF,1692195266
223,huazhou,21.6333,110.5833,28.02,77,100,1.42,CN,1692195267
224,kapa'a,22.0752,-159.319,27.18,84,75,5.66,US,1692195267
225,hasaki,35.7333,140.8333,27.39,87,6,6.73,JP,1692195268
226,northam,51.0333,-4.2167,22.03,66,95,3.6,GB,1692195268
227,wingham,43.8879,-81.3114,21.26,78,4,2.45,CA,1692195269
228,invercargill,-46.4,168.35,6.12,91,99,1.34,NZ,1692195270
229,machico,32.7,-16.7667,27.35,70,20,7.2,PT,1692195270
230,torquay,50.4638,-3.5143,23.66,73,27,2.16,GB,1692195271
231,knysna,-34.0363,23.0471,22.73,43,66,1.7,ZA,1692195271
232,quepos,9.4236,-84.1652,27.84,70,45,0.72,CR,1692195272
233,yulinshi,38.2906,109.7494,29.76,32,1,2.59,CN,1692195273
234,carrigaline,51.8117,-8.3986,19.86,72,75,5.14,IE,1692195273
235,conduaga,8.862,117.4893,26.2,86,100,2.16,PH,1692195274
236,geraldton,-28.7667,114.6,9.23,87,40,3.09,AU,1692195275
237,oliver,49.1831,-119.5524,28.95,34,0,3.09,CA,1692195275
238,brookings,44.3114,-96.7984,20.77,85,0,8.75,US,1692195121
239,al qusayr,34.5091,36.5798,36.03,28,1,4.98,SY,1692195277
240,creel,27.75,-107.6333,15.81,76,80,2.38,MX,1692195277
241,brisas de zicatela,15.8369,-97.0419,28.29,69,75,2.57,MX,1692195278
242,kunhegyes,47.3667,20.6333,31.64,48,85,1.79,HU,1692195279
243,laguna paiva,-31.3039,-60.6589,28.32,57,100,4.47,AR,1692195279
244,zhangye,38.9342,100.4517,19.2,52,100,4.32,CN,1692195280
245,touros,-5.1989,-35.4608,29.43,47,14,7.88,BR,1692195148
246,trail,49.0998,-117.7022,22.58,47,0,1.06,CA,1692195281
247,greymouth,-42.4667,171.2,3.22,87,8,3.13,NZ,1692195282
248,island harbour,50.724,-1.2758,25.08,69,99,2.93,GB,1692195282
249,otra banda,18.6502,-68.6628,31.71,55,3,6.02,DO,1692195283
250,san andres,12.5847,-81.7006,30.01,79,40,7.2,CO,1692195265
251,saint-joseph,-21.3667,55.6167,23.21,78,28,0.56,RE,1692195284
252,vadso,70.0744,29.7487,14.49,94,75,9.26,NO,1692195284
253,kingston,17.997,-76.7936,31.8,69,20,4.12,JM,1692195261
254,konarka,19.9,86.1167,31.22,73,100,4.69,IN,1692195285
255,ulladulla,-35.35,150.4667,8.99,67,0,2.73,AU,1692195286
256,barreirinha,-2.7933,-57.07,34.42,31,5,1.69,BR,1692195286
257,sumqayit,40.5897,49.6686,33.04,30,12,3.35,AZ,1692195287
258,vallenar,-28.5708,-70.7581,16.56,64,61,2.49,CL,1692195288
259,happy valley-goose bay,53.3168,-60.3315,15.96,63,64,0.2,CA,1692195021
260,chui,-33.6971,-53.4616,21.39,63,100,4.62,UY,1692195289
261,tefe,-3.3542,-64.7114,30.06,70,20,1.54,BR,1692195289
262,drayton valley,53.2168,-114.9854,13.55,81,19,1.67,CA,1692195290
263,frontera,26.9333,-101.45,29.38,52,0,0.89,MX,1692195290
264,hailar,49.2,119.7,17.15,93,4,3.08,CN,1692195291
265,les anglais,18.3054,-74.2197,30.06,68,35,1.0,HT,1692195291
266,souillac,-20.5167,57.5167,24.21,69,20,2.57,MU,1692195292
267,kill devil hills,36.0307,-75.676,29.0,81,75,1.54,US,1692195293
268,cabo san lucas,22.8909,-109.9124,30.28,82,20,0.0,MX,1692195293
269,siwa oasis,29.2041,25.5195,35.65,19,0,6.35,EG,1692195294
270,al bawiti,28.3492,28.8659,34.25,23,0,7.47,EG,1692195294
271,strezhevoy,60.7333,77.5889,15.97,62,31,6.05,RU,1692195295
272,campo maior,-4.8278,-42.1686,34.06,27,38,3.99,BR,1692195105
273,gyeongju,35.8428,129.2117,23.47,95,100,1.12,KR,1692195296
274,taroa,8.7058,171.2275,28.08,79,94,5.08,MH,1692195296
275,taitung city,22.7583,121.1444,27.15,100,75,1.03,TW,1692195297
276,xining,36.6167,101.7667,16.55,68,100,2.61,CN,1692195298
277,vila franca do campo,37.7167,-25.4333,25.23,62,67,4.09,PT,1692195298
278,crotone,39.0851,17.1178,31.97,40,0,3.09,IT,1692195299
279,wladyslawowo,54.7909,18.4009,25.75,90,92,6.49,PL,1692195300
280,urucui,-7.2294,-44.5561,33.31,29,7,5.33,BR,1692195298
281,guajara mirim,-10.7828,-65.3394,32.5,35,1,0.08,BR,1692195151
282,atar,20.5169,-13.0499,41.67,20,27,1.14,MR,1692195303
283,gebeit,21.0667,36.3167,41.74,15,84,4.33,SD,1692195304
284,pacific grove,36.6177,-121.9166,16.12,96,100,0.89,US,1692195305
285,pacasmayo,-7.4006,-79.5714,21.46,78,74,5.03,PE,1692195306
286,hanceville,34.0607,-86.7675,25.86,65,0,2.17,US,1692195051
287,kone,-21.0595,164.8658,15.2,87,0,1.17,NC,1692195307
288,sosnovo-ozerskoye,52.5249,111.5418,16.5,87,100,1.94,RU,1692195152
289,tura,25.5198,90.2201,25.13,93,100,1.6,IN,1692195308
290,porto novo,6.4965,2.6036,27.9,68,71,3.15,BJ,1692195309
291,antsiranana,-12.2787,49.2917,25.18,71,13,5.84,MG,1692195309
292,sanming,26.2486,117.6186,26.04,92,80,0.79,CN,1692195310
293,llallagua,-18.4167,-66.6333,9.65,16,0,2.57,BO,1692195310
294,svetlogorsk,52.6333,29.7333,29.84,42,0,3.27,BY,1692195311
295,sisimiut,66.9395,-53.6735,11.63,68,18,2.23,GL,1692195312
296,la'ie,21.6477,-157.9253,25.81,78,15,6.48,US,1692195312
297,san borja,-14.8167,-66.85,29.12,44,0,1.59,BO,1692195313
298,malango,-2.9627,119.9001,19.75,98,86,0.52,ID,1692195313
299,weilheim,47.8333,11.15,30.53,58,0,3.32,DE,1692195314
300,coahuayana de hidalgo,18.7,-103.6583,25.95,89,94,1.58,MX,1692195314
301,ko pha ngan,9.7578,100.0291,26.38,77,66,9.2,TH,1692195315
302,kismayo,-0.3582,42.5454,26.77,71,16,7.06,SO,1692195316
303,vorgashor,67.5833,63.95,17.53,66,91,3.03,RU,1692195316
304,east london,-33.0153,27.9116,18.52,68,0,8.23,ZA,1692195143
305,muskogee,35.5834,-95.3336,21.65,80,0,2.57,US,1692195230
306,ouani,-12.1322,44.4258,26.19,70,9,2.89,KM,1692195318
307,kanigiri,15.4,79.5167,33.41,40,23,3.25,IN,1692195318
308,khon buri,14.5254,102.2459,28.06,77,100,2.33,TH,1692195319
309,hermanus,-34.4187,19.2345,19.33,61,0,3.7,ZA,1692195320
310,prince albert,53.2001,-105.7677,14.97,88,75,4.63,CA,1692195321
311,khandud,36.9513,72.318,20.36,13,0,3.98,AF,1692195321
312,oamaru,-45.0784,170.9801,3.54,84,78,3.45,NZ,1692195322
313,nagqu,31.5,92.0,11.89,64,100,1.86,CN,1692195323
314,perbaungan,3.5679,98.956,28.06,86,92,2.06,ID,1692195323
315,nizhneudinsk,54.9076,99.0276,10.82,83,68,1.66,RU,1692195324
316,dul'durga,50.6761,113.5931,21.16,61,100,1.53,RU,1692195324
317,breves,-1.6822,-50.4803,33.7,42,28,2.35,BR,1692195325
318,port alfred,-33.5906,26.891,17.88,75,71,1.79,ZA,1692195326
319,gurlan,41.8447,60.3919,32.95,12,0,3.62,UZ,1692195327
320,matale,7.4721,80.6234,24.29,73,76,2.09,LK,1692195328
321,christchurch,-43.5333,172.6333,6.11,86,36,5.14,NZ,1692195328
322,traverse city,44.7631,-85.6206,23.04,74,75,3.6,US,1692195329
323,cururupu,-1.8283,-44.8683,29.57,63,75,3.96,BR,1692195330
324,orsa,54.5153,30.4053,27.55,57,76,1.98,BY,1692195331
325,royan,45.6285,-1.0281,30.46,57,38,4.41,FR,1692195331
326,heunghae,36.1125,129.3522,23.6,93,99,2.0,KR,1692195332
327,nadi,-17.8,177.4167,23.0,94,75,3.6,FJ,1692195332
328,cadale,2.7603,46.3222,26.59,76,100,9.2,SO,1692195333
329,kalmunai,7.4167,81.8167,30.76,59,93,7.26,LK,1692195333
330,la passe,45.5549,-0.8967,30.57,55,33,3.87,FR,1692195334
331,ketchikan,55.3422,-131.6461,14.26,88,100,4.63,US,1692195335
332,howrah,22.5892,88.3103,28.0,89,75,0.0,IN,1692195335
333,gombi,10.1614,12.7399,30.13,54,99,2.78,NG,1692195336
334,kaliua,-5.0606,31.7936,33.13,19,82,2.29,TZ,1692195336
335,inhambane,-23.865,35.3833,21.73,58,77,4.45,MZ,1692195337
336,savage,44.7791,-93.3363,23.39,73,0,6.69,US,1692195338
337,jeddah,21.5169,39.2192,35.92,59,20,3.09,SA,1692195338
338,mossendjo,-2.9506,12.7261,35.18,29,78,2.47,CG,1692195339
339,hobyo,5.3505,48.5268,27.2,70,53,13.11,SO,1692195340
340,crocetta del montello,45.8367,12.0336,33.57,44,20,2.57,IT,1692195340
341,saint-flour,45.0833,3.0,26.05,34,100,2.91,FR,1692195341
342,tindouf,27.6711,-8.1474,44.25,10,1,3.09,DZ,1692195341
343,kidal,18.4411,1.4078,35.07,34,100,4.27,ML,1692195342
344,kadugli,11.0167,29.7167,28.97,62,100,2.79,SD,1692195342
345,kinablangan,7.6947,126.5503,25.88,88,99,2.12,PH,1692195343
346,labrador city,52.9463,-66.9114,15.95,82,100,4.63,CA,1692195313
347,labuan,5.2767,115.2417,26.2,89,20,0.0,MY,1692195344
348,guiuan,11.0333,125.7247,28.09,76,96,2.73,PH,1692195345
349,fuglafjordur,62.244,-6.814,12.26,81,98,3.22,FO,1692195346
350,homer,59.6425,-151.5483,10.94,95,100,4.12,US,1692195346
351,natal,-5.795,-35.2094,29.12,58,40,7.72,BR,1692195347
352,novaya igirma,57.1334,103.9112,11.94,98,100,3.22,RU,1692195348
353,jamaame,0.0697,42.745,27.94,60,33,7.09,SO,1692195349
354,dolores,-36.3132,-57.6792,16.8,79,96,4.5,AR,1692195349
355,mejit,10.2753,170.8646,27.87,79,97,5.29,MH,1692195350
356,gainsborough,53.3833,-0.7667,24.15,39,19,1.93,GB,1692195350
357,lata,40.1629,-8.3327,29.72,47,36,5.06,PT,1692195351
358,bayevo,53.2833,80.7667,15.29,76,100,3.45,RU,1692195085
359,sengkang,-4.1279,120.0297,21.6,91,0,1.25,ID,1692195352
360,kirakira,-10.4544,161.9205,25.02,89,98,3.45,SB,1692195352
361,nikolayevsk-on-amure,53.1406,140.73,17.6,96,25,1.02,RU,1692195353
362,zhezqazghan,47.7833,67.7667,25.32,27,0,3.0,KZ,1692195354
363,eten,-6.9081,-79.8642,25.14,65,75,3.09,PE,1692195354
364,ambovombe,-25.1667,46.0833,19.72,64,89,5.4,MG,1692195355
365,mwene-ditu,-7.0,23.45,31.49,31,75,0.8,CD,1692195355
366,dereli,40.7378,38.4493,26.09,70,0,2.64,TR,1692195356
367,tafuna,-14.3358,-170.72,25.97,89,40,1.54,AS,1692195357
368,igrim,63.1906,64.4162,22.05,58,100,2.07,RU,1692195358
369,sal rei,16.1833,-22.9167,31.11,66,75,5.14,CV,1692195358
370,san fernando,15.0286,120.6898,27.85,87,99,1.04,PH,1692195359
371,new norfolk,-42.7826,147.0587,7.72,89,100,1.25,AU,1692195359
372,karratha,-20.7377,116.8463,21.56,29,0,5.93,AU,1692195360
373,gadzhiyevo,69.2551,33.3362,11.53,96,100,3.45,RU,1692195361
374,luanda,-8.8368,13.2343,24.0,73,0,5.14,AO,1692195129
375,kendari,-3.945,122.4989,23.07,84,25,0.92,ID,1692195096
376,ginir,7.1333,40.7,24.46,37,99,7.19,ET,1692195362
377,puma,-5.0,34.7333,25.25,33,100,3.26,TZ,1692195363
378,estella-lizarra,42.6718,-2.0323,32.96,31,2,2.1,ES,1692195364
379,kavalerovo,44.2661,135.0572,19.97,99,100,1.34,RU,1692195155
380,hazorasp,41.3194,61.0742,31.91,12,0,4.19,UZ,1692195365
381,tari,12.4086,4.4914,33.76,44,57,2.04,NG,1692195365
382,kourou,5.1552,-52.6478,31.03,63,3,3.97,GF,1692195366
383,quellon,-43.1167,-73.6167,9.39,92,100,6.7,CL,1692195367
384,beboto,8.2668,16.939,30.85,61,89,1.91,TD,1692195367
385,enewetak,11.3474,162.3373,28.35,79,92,4.41,MH,1692195368
386,kurchatov,51.6601,35.6521,26.65,43,3,4.82,RU,1692195369
387,patnos,39.2336,42.8634,32.69,8,1,0.23,TR,1692195369
388,chapayevsk,52.9771,49.7086,25.85,50,88,5.12,RU,1692195370
389,korla,41.7597,86.1469,26.05,25,3,1.2,CN,1692195371
390,ulsteinvik,62.3432,5.8487,16.28,84,100,3.13,NO,1692195194
391,essaouira,31.5125,-9.77,33.72,38,0,6.69,MA,1692195372
392,shamsabad,27.0167,78.1333,31.8,56,80,2.67,IN,1692195372
393,palangkaraya,-2.2,113.8333,25.07,78,24,2.02,ID,1692195373
394,newman,37.3138,-121.0208,23.13,78,6,0.45,US,1692195373
395,shabqadar,34.2139,71.5552,35.12,50,17,3.41,PK,1692195374
396,kitakata,37.65,139.8667,23.15,95,11,1.1,JP,1692195374
397,crane,31.3974,-102.3501,28.55,39,13,4.59,US,1692195375
398,mapimi,25.8167,-103.85,22.74,57,6,1.57,MX,1692195376
399,ghat,24.9647,10.1728,38.95,16,58,2.07,LY,1692195376
400,sodra sandby,56.5667,16.6167,24.92,64,65,5.92,SE,1692195377
401,tual,-5.6667,132.75,25.74,81,88,8.13,ID,1692195377
402,suva,-18.1416,178.4415,22.71,94,100,1.54,FJ,1692195378
403,lesosibirsk,58.2358,92.4828,12.7,97,100,2.13,RU,1692195379
404,pangoa,-12.1167,-73.0,26.29,54,0,0.69,PE,1692195379
405,aleg,17.0481,-13.9209,32.34,50,100,5.18,MR,1692195380
406,lautoka,-17.6167,177.4667,22.92,94,75,3.6,FJ,1692195156
407,ouallam,14.3188,2.0866,26.74,72,100,2.35,NE,1692195381
408,skowhegan,44.7651,-69.7192,22.54,77,74,1.9,US,1692195382
409,la palma,33.8464,-118.0467,28.06,93,20,2.06,US,1692195383
410,serenje,-13.2325,30.2352,26.62,21,0,4.21,ZM,1692195383
411,konnern,51.6667,11.7667,28.14,60,96,2.08,DE,1692195384
412,san rafael,-34.6177,-68.3301,14.86,40,0,5.74,AR,1692195188
413,nema,57.5067,50.5011,25.52,50,93,3.46,RU,1692195386
414,zag,46.9441,99.165,10.27,59,0,2.06,MN,1692195387
415,okhotsk,59.3833,143.3,14.08,94,100,2.77,RU,1692195387
416,usogorsk,63.4106,48.6872,25.43,58,45,3.53,RU,1692195388
417,bayanhongor,46.7167,100.1167,7.96,66,0,2.22,MN,1692195389
418,sovetskiy,61.3614,63.5842,23.42,49,90,1.67,RU,1692195390
419,songwa,-3.5167,33.5167,31.37,24,95,3.45,TZ,1692195391
420,yuzhno-kurilsk,44.0306,145.8556,17.7,95,99,4.01,RU,1692195392
421,long beach,33.767,-118.1892,25.52,92,0,3.6,US,1692195327
422,coquimbo,-29.9533,-71.3436,15.32,79,25,2.09,CL,1692195289
423,ardakan,32.31,54.0175,32.99,4,0,6.22,IR,1692195393
424,camacupa,-12.0167,17.4833,31.55,11,0,0.67,AO,1692195394
425,mirny,62.5353,113.9611,15.13,93,57,1.79,RU,1692195395
426,yeed,4.55,43.0333,33.73,26,90,10.16,SO,1692195396
427,conde,-7.2597,-34.9075,27.7,61,75,6.69,BR,1692195341
428,tazacorte,28.629,-17.9293,26.54,65,0,6.17,ES,1692195397
429,el molar,40.7322,-3.5797,33.42,21,0,5.26,ES,1692195398
430,baie-saint-paul,47.4411,-70.4986,23.87,75,100,1.48,CA,1692195348
431,tweed heads,-28.1817,153.547,16.11,88,75,1.54,AU,1692195400
432,maumere,-8.6199,122.2111,25.47,76,87,2.55,ID,1692195400
433,tofol,5.3248,163.0078,28.04,74,43,1.51,FM,1692195401
434,luocheng,29.3848,104.0286,26.25,85,100,1.19,CN,1692195401
435,stawell,-37.05,142.7667,4.34,71,66,2.18,AU,1692195402
436,akrehamn,59.2667,5.1833,16.11,77,75,5.14,NO,1692195403
437,dadukou,26.5479,101.7054,25.91,65,98,1.23,CN,1692195403
438,jonuta,18.0833,-92.1333,26.28,78,95,2.57,MX,1692195404
439,nova vicosa,-17.8919,-39.3719,25.6,65,80,4.88,BR,1692195404
440,mata-utu,-13.2816,-176.1745,27.57,79,16,7.0,WF,1692195405
441,sungai penuh,-2.0833,101.3833,19.19,99,85,0.88,ID,1692195406
442,dampit,-8.2116,112.7493,19.02,96,99,1.75,ID,1692195406
443,volcan,8.7667,-82.6333,21.16,80,100,1.15,PA,1692195412
444,ulimang,7.6242,134.6421,26.23,81,100,3.57,PW,1692195412
445,olyokminsk,60.3736,120.4264,15.01,95,1,1.07,RU,1692195413
446,ziro,27.6333,93.8333,16.86,99,87,0.65,IN,1692195414
447,diego de almagro,-26.3667,-70.05,17.56,44,0,1.43,CL,1692195414
448,dayton,39.7589,-84.1916,22.13,80,0,2.57,US,1692195406
449,salalah,17.0151,54.0924,27.05,94,100,5.14,OM,1692195415
450,wuyang,31.9925,116.2472,26.87,75,35,1.36,CN,1692195416
451,broome,42.2506,-75.833,21.5,91,100,4.12,US,1692195417
452,aracuai,-16.8497,-42.0703,25.72,52,100,2.84,BR,1692195313
453,kirgiz-miyaki,53.6324,54.7979,22.0,63,95,2.0,RU,1692195418
454,sinabang,2.4803,96.3801,26.57,81,100,1.65,ID,1692195418
455,funafuti,-8.5243,179.1942,27.0,89,75,2.06,TV,1692195419
456,canto do buriti,-8.11,-42.9444,31.22,34,6,5.48,BR,1692195343
457,angaur state,6.906,134.13,27.74,80,58,4.11,PW,1692195420
458,broken hill,-31.95,141.4333,12.47,45,83,4.55,AU,1692195421
459,minas de marcona,-15.2119,-75.1103,14.94,72,41,4.79,PE,1692195421
460,callaway,30.153,-85.5699,29.97,72,0,0.45,US,1692195422
461,gilgit,35.9221,74.3087,31.68,31,19,1.9,PK,1692195423
462,bardai,11.65,7.2333,32.44,40,12,3.94,NG,1692195423
463,lira,2.235,32.9097,28.88,36,99,1.35,UG,1692195424
464,smidovich,48.6,133.8167,22.79,82,100,1.39,RU,1692195425
465,kralendijk,12.15,-68.2667,30.99,70,75,5.14,BQ,1692195425
466,sao joao da barra,-21.6403,-41.0511,25.05,75,84,6.29,BR,1692195299
467,weinan,34.5036,109.5089,28.89,51,6,2.69,CN,1692195426
468,kaa-khem,51.6833,94.7333,12.43,72,84,1.78,RU,1692195427
469,inarajan village,13.2736,144.7484,28.54,95,56,1.57,GU,1692195428
470,hurricane,37.1753,-113.2899,25.19,67,43,0.45,US,1692195428
471,sampit,-2.5333,112.95,24.94,84,31,2.29,ID,1692195429
472,polyarnyy,69.1989,33.4478,12.51,95,100,3.12,RU,1692195429
473,tete,-16.1564,33.5867,30.05,37,40,5.14,MZ,1692195430
474,tsarevo,42.1667,27.85,26.26,75,27,6.82,BG,1692195431
475,meadow lake,34.8014,-106.5436,25.38,52,5,1.06,US,1692195431
476,claix,45.1225,5.6748,36.19,39,5,0.89,FR,1692195432
477,palmer,42.1584,-72.3287,20.29,82,100,2.06,US,1692195433
478,tosontsengel,48.7567,98.2839,9.68,42,53,4.37,MN,1692195434
479,puerto leguizamo,-0.1934,-74.7819,25.87,81,40,0.69,CO,1692195434
480,surianwan,25.4667,82.4167,31.96,57,96,1.0,IN,1692195435
481,fort bragg,35.139,-79.006,28.08,59,20,3.6,US,1692195436
482,yashkul',46.1711,45.3435,34.09,23,0,3.3,RU,1692195436
483,tsagan aman,47.5639,46.7218,32.91,23,11,6.37,RU,1692195437
484,sarkand,45.41,79.9186,20.02,35,99,1.63,KZ,1692195437
485,praia da vitoria,38.7333,-27.0667,28.14,69,20,4.31,PT,1692195438
486,nadym,65.5333,72.5167,14.13,64,86,5.33,RU,1692195438
487,qusmuryn,52.4503,64.6311,26.27,35,2,2.8,KZ,1692195439
488,kattivakkam,13.2167,80.3167,31.05,85,64,5.47,IN,1692195440
489,freetown,8.484,-13.2299,28.11,69,100,4.4,SL,1692195440
490,lhuentse,27.6679,91.1839,22.71,97,99,0.43,BT,1692195441
491,barreirinhas,-2.7469,-42.8264,33.12,37,6,3.23,BR,1692195442
492,porto velho,-8.7619,-63.9039,31.03,55,0,1.03,BR,1692195368
493,skagen,57.7209,10.5839,16.58,85,90,9.71,DK,1692195444
494,kyzylorda,44.8528,65.5092,34.01,18,0,2.0,KZ,1692195444
495,gaya,24.7833,85.0,31.95,66,75,0.0,IN,1692195387
496,fuding,27.3273,120.214,24.9,95,8,0.86,CN,1692195446
497,tsiombe,-25.3,45.4833,19.79,59,100,4.39,MG,1692195446
498,chagoda,59.164,35.3285,26.28,41,7,1.75,RU,1692195447
499,carnarvon,-24.8667,113.6333,17.31,62,0,13.37,AU,1692195448
500,madang,-5.2246,145.7966,24.91,92,77,2.11,PG,1692195448
501,revda,56.801,59.9303,21.71,68,100,0.71,RU,1692195449
502,san luis de la loma,17.2706,-100.8939,26.03,87,100,3.48,MX,1692195450
503,mendefera,14.8872,38.8153,20.87,70,98,3.93,ER,1692195450
504,gizo,-8.103,156.8419,26.32,85,74,5.29,SB,1692195451
505,haffouz,35.6324,9.6762,35.57,24,0,4.7,TN,1692195452
506,jayapura,-2.5333,140.7,25.66,90,70,3.2,ID,1692195452
507,salah bey,35.8545,5.2905,36.23,16,21,4.6,DZ,1692195453
508,maxixe,-23.8597,35.3472,21.74,57,82,4.23,MZ,1692195454
509,mount gambier,-37.8333,140.7667,8.01,92,100,2.37,AU,1692195248
510,fortaleza,-3.7227,-38.5247,31.07,42,20,7.2,BR,1692195455
511,danane,7.2596,-8.155,31.78,44,42,1.32,CI,1692195455
512,washington,47.5001,-120.5015,26.22,45,0,2.27,US,1692195193
513,sarila,25.7667,79.6833,31.78,58,40,3.86,IN,1692195456
514,tabas,33.5959,56.9244,35.12,5,0,5.14,IR,1692195457
515,vorkuta,67.5,64.0,17.71,65,91,2.81,RU,1692195458
516,neiafu,-18.65,-173.9833,23.38,78,75,5.14,TO,1692195458
517,morondava,-20.2833,44.2833,24.35,60,0,7.71,MG,1692195459
518,aswan,24.0934,32.907,41.61,17,0,4.63,EG,1692195459
519,bikenibeu village,1.3673,173.1241,28.98,79,40,2.57,KI,1692195460
520,vilyuchinsk,52.9306,158.4028,15.15,83,88,4.14,RU,1692195460
521,pisco,-13.7,-76.2167,19.45,82,100,1.54,PE,1692195461
522,guatire,10.4762,-66.5427,30.11,90,49,1.03,VE,1692195462
523,el alto,-4.2714,-81.2147,23.81,69,46,5.06,PE,1692195462
524,tambacounda,13.7539,-13.7586,30.03,74,75,2.06,SN,1692195463
525,dombarovskiy,50.7587,59.5386,24.56,39,99,5.25,RU,1692195463
526,kristiansund,63.1115,7.732,16.03,72,75,4.63,NO,1692195464
527,kiunga,-6.1219,141.2906,22.21,98,87,1.22,PG,1692195465
528,timbiqui,2.7717,-77.6654,26.49,84,19,1.07,CO,1692195465
529,kingsville,27.5159,-97.8561,30.59,74,20,2.06,US,1692195466
530,ponta delgada,37.7333,-25.6667,25.4,78,20,5.14,PT,1692195466
531,guangyuan,32.442,105.823,25.64,84,68,0.81,CN,1692195467
532,uruacu,-14.5247,-49.1408,29.62,31,93,4.78,BR,1692195467
533,kete krachi,7.7939,-0.0498,28.89,68,74,0.41,GH,1692195468
534,riverton,40.5219,-111.9391,26.19,59,0,3.58,US,1692195410
535,sterlitamak,53.6246,55.9502,27.25,34,100,3.98,RU,1692195286
536,zaozersk,69.4005,32.4476,10.73,98,100,5.1,RU,1692195469
537,muynoq,43.7683,59.0214,31.75,17,27,4.24,UZ,1692195470
538,guider,9.9342,13.9486,34.25,44,92,2.73,CM,1692195471
539,bonthe,7.5264,-12.505,27.78,69,100,5.07,SL,1692195471
540,morant bay,17.8815,-76.4093,32.06,71,38,3.79,JM,1692195472
541,malvan,16.0667,73.4667,26.76,83,70,4.22,IN,1692195472
542,sangueya,10.7,-14.3667,25.72,91,100,3.39,GN,1692195473
543,saint-pierre,-21.3393,55.4781,23.82,69,75,2.06,RE,1692195474
544,kagal,16.5833,74.3167,23.22,84,67,4.04,IN,1692195474
545,prado,-17.3411,-39.2208,23.83,79,90,4.45,BR,1692195475
546,pedernales,18.0384,-71.744,30.34,64,4,2.59,DO,1692195475
547,kaitong,44.8135,123.15,24.22,77,16,2.06,CN,1692195476
548,oranjemund,-28.55,16.4333,14.59,69,8,5.11,NA,1692195477
549,qamdo,31.1667,97.2333,13.81,54,100,1.05,CN,1692195477
550,longgang,37.6508,120.3286,26.24,74,1,2.98,CN,1692195478
551,marsh harbour,26.5412,-77.0636,29.53,73,100,5.82,BS,1692195478
552,nakambala,-15.8324,27.7799,29.12,16,0,5.01,ZM,1692195479
553,boone,39.0334,-92.3335,22.59,80,9,2.01,US,1692195479
554,maintirano,-18.0667,44.0167,25.2,57,0,7.47,MG,1692195480
555,manati,18.4275,-66.4921,32.7,80,39,6.7,PR,1692195480
556,tucuma,-0.1833,-50.05,32.04,50,8,2.77,BR,1692195481
557,san jose de jachal,-30.2406,-68.7469,22.35,12,0,2.37,AR,1692195482
558,debre mark'os,10.35,37.7333,16.54,83,100,2.94,ET,1692195482
559,san ignacio,17.1561,-89.0714,27.08,83,75,0.0,BZ,1692195483
560,collie,-33.3667,116.15,9.02,75,63,1.56,AU,1692195484
561,novaya mayna,54.15,49.75,21.02,79,100,2.57,RU,1692195484
562,cabot,34.9745,-92.0165,24.34,75,0,2.57,US,1692195486
